{
   "type": "FeatureCollection",
   "features": [
  {
    "type": "Feature",
    "geometry": {
       "type": "Point",
       "coordinates":  [ -95.712891,37.09024 ]
    },
    "properties": {
    "Country Name":"United States",
    "Country Code":"USA",
    "2010":13,
    "2011":12.7,
    "2012":12.6,
    "2013":12.4,
    "2014":12.5,
    "2015":12.4,
    "2016":12.2,
    "2017":11.8,
    "2018":11.6,
    "2019":11.4,
    "2020":10.9,
    "2021":11
    }
  },
  {
    "type": "Feature",
    "geometry": {
       "type": "Point",
       "coordinates":  [ 104.195397,35.86166 ]
    },
    "properties": {
    "Country Name":"China",
    "Country Code":"CHN",
    "2010":11.9,
    "2011":13.27,
    "2012":14.57,
    "2013":13.03,
    "2014":13.83,
    "2015":11.99,
    "2016":13.57,
    "2017":12.64,
    "2018":10.86,
    "2019":10.41,
    "2020":8.52,
    "2021":7.52
    }
  },
  {
    "type": "Feature",
    "geometry": {
       "type": "Point",
       "coordinates":  [ 138.252924,36.204824 ]
    },
    "properties": {
    "Country Name":"Japan",
    "Country Code":"JPN",
    "2010":8.5,
    "2011":8.3,
    "2012":8.2,
    "2013":8.2,
    "2014":8,
    "2015":8,
    "2016":7.8,
    "2017":7.6,
    "2018":7.4,
    "2019":7,
    "2020":6.8,
    "2021":6.6
    }
  },
  {
    "type": "Feature",
    "geometry": {
       "type": "Point",
       "coordinates":  [ 10.451526,51.165691 ]
    },
    "properties": {
    "Country Name":"Germany",
    "Country Code":"DEU",
    "2010":8.3,
    "2011":8.3,
    "2012":8.4,
    "2013":8.5,
    "2014":8.8,
    "2015":9,
    "2016":9.6,
    "2017":9.5,
    "2018":9.5,
    "2019":9.4,
    "2020":9.3,
    "2021":9.6
    }
  },
  {
    "type": "Feature",
    "geometry": {
       "type": "Point",
       "coordinates":  [ 78.96288,20.593684 ]
    },
    "properties": {
    "Country Name":"India",
    "Country Code":"IND",
    "2010":21.438,
    "2011":20.945,
    "2012":20.421,
    "2013":19.935,
    "2014":19.049,
    "2015":18.765,
    "2016":18.514,
    "2017":17.911,
    "2018":17.651,
    "2019":17.049,
    "2020":16.572,
    "2021":16.419
    }
  },
  {
    "type": "Feature",
    "geometry": {
       "type": "Point",
       "coordinates":  [ -3.435973,55.378051 ]
    },
    "properties": {
    "Country Name":"United Kingdom",
    "Country Code":"GBR",
    "2010":12.9,
    "2011":12.8,
    "2012":12.8,
    "2013":12.1,
    "2014":12,
    "2015":11.9,
    "2016":11.8,
    "2017":11.4,
    "2018":11,
    "2019":10.7,
    "2020":10.1,
    "2021":10.1
    }
  },
  {
    "type": "Feature",
    "geometry": {
       "type": "Point",
       "coordinates":  [ -106.346771,56.130366 ]
    },
    "properties": {
    "Country Name":"Canada",
    "Country Code":"CAN",
    "2010":11.2,
    "2011":11,
    "2012":11,
    "2013":10.9,
    "2014":10.9,
    "2015":10.7,
    "2016":10.6,
    "2017":10.3,
    "2018":10.1,
    "2019":9.9,
    "2020":9.5,
    "2021":9.6
    }
  },
  {
    "type": "Feature",
    "geometry": {
       "type": "Point",
       "coordinates":  [ 2.213749,46.227638 ]
    },
    "properties": {
    "Country Name":"France",
    "Country Code":"FRA",
    "2010":12.9,
    "2011":12.7,
    "2012":12.6,
    "2013":12.4,
    "2014":12.4,
    "2015":12,
    "2016":11.8,
    "2017":11.5,
    "2018":11.3,
    "2019":11.2,
    "2020":10.9,
    "2021":10.9
    }
  },
  {
    "type": "Feature",
    "geometry": {
       "type": "Point",
       "coordinates":  [ 12.56738,41.87194 ]
    },
    "properties": {
    "Country Name":"Italy",
    "Country Code":"ITA",
    "2010":9.5,
    "2011":9.2,
    "2012":9,
    "2013":8.5,
    "2014":8.3,
    "2015":8,
    "2016":7.8,
    "2017":7.6,
    "2018":7.3,
    "2019":7,
    "2020":6.8,
    "2021":6.8
    }
  },
  {
    "type": "Feature",
    "geometry": {
       "type": "Point",
       "coordinates":  [ 105.318756,61.52401 ]
    },
    "properties": {
    "Country Name":"Russian Federation",
    "Country Code":"RUS",
    "2010":12.5,
    "2011":12.6,
    "2012":13.3,
    "2013":13.2,
    "2014":13.3,
    "2015":13.3,
    "2016":12.9,
    "2017":11.5,
    "2018":10.9,
    "2019":10.1,
    "2020":9.8,
    "2021":9.6
    }
  },
  {
    "type": "Feature",
    "geometry": {
       "type": "Point",
       "coordinates":  [ 53.847818,23.424076 ]
    },
    "properties": {
    "Country Name":"United Arab Emirates",
    "Country Code":"ARE",
    "2010":13.665,
    "2011":13.292,
    "2012":12.911,
    "2013":12.438,
    "2014":11.989,
    "2015":11.478,
    "2016":10.993,
    "2017":10.62,
    "2018":10.049,
    "2019":9.75,
    "2020":10.62,
    "2021":10.307
    }
  },
  {
    "type": "Feature",
    "geometry": {
       "type": "Point",
       "coordinates":  [ -63.616672,-38.416097 ]
    },
    "properties": {
    "Country Name":"Argentina",
    "Country Code":"ARG",
    "2010":17.87,
    "2011":17.806,
    "2012":17.729,
    "2013":17.632,
    "2014":17.504,
    "2015":17.346,
    "2016":16.824,
    "2017":16.206,
    "2018":15.187,
    "2019":14.783,
    "2020":14.125,
    "2021":13.902
    }
  },
  {
    "type": "Feature",
    "geometry": {
       "type": "Point",
       "coordinates":  [ 133.775136,-25.274398 ]
    },
    "properties": {
    "Country Name":"Australia",
    "Country Code":"AUS",
    "2010":13.7,
    "2011":13.6,
    "2012":13.7,
    "2013":13.3,
    "2014":13.2,
    "2015":12.9,
    "2016":12.9,
    "2017":12.6,
    "2018":12.6,
    "2019":12.1,
    "2020":11.5,
    "2021":12.1
    }
  },
  {
    "type": "Feature",
    "geometry": {
       "type": "Point",
       "coordinates":  [ 4.469936,50.503887 ]
    },
    "properties": {
    "Country Name":"Belgium",
    "Country Code":"BEL",
    "2010":11.9,
    "2011":11.7,
    "2012":11.5,
    "2013":11.3,
    "2014":11.2,
    "2015":10.8,
    "2016":10.8,
    "2017":10.5,
    "2018":10.4,
    "2019":10.2,
    "2020":9.9,
    "2021":10.2
    }
  },
  {
    "type": "Feature",
    "geometry": {
       "type": "Point",
       "coordinates":  [ -51.92528,-14.235004 ]
    },
    "properties": {
    "Country Name":"Brazil",
    "Country Code":"BRA",
    "2010":15.492,
    "2011":15.309,
    "2012":14.939,
    "2013":14.69,
    "2014":14.753,
    "2015":14.727,
    "2016":14.051,
    "2017":14.159,
    "2018":14.133,
    "2019":13.633,
    "2020":13.078,
    "2021":12.883
    }
  },
  {
    "type": "Feature",
    "geometry": {
       "type": "Point",
       "coordinates":  [ 8.227512,46.818188 ]
    },
    "properties": {
    "Country Name":"Switzerland",
    "Country Code":"CHE",
    "2010":10.3,
    "2011":10.2,
    "2012":10.3,
    "2013":10.2,
    "2014":10.4,
    "2015":10.5,
    "2016":10.5,
    "2017":10.3,
    "2018":10.3,
    "2019":10,
    "2020":9.9,
    "2021":10.3
    }
  },
  {
    "type": "Feature",
    "geometry": {
       "type": "Point",
       "coordinates":  [ -3.74922,40.463667 ]
    },
    "properties": {
    "Country Name":"Spain",
    "Country Code":"ESP",
    "2010":10.4,
    "2011":10.1,
    "2012":9.7,
    "2013":9.1,
    "2014":9.2,
    "2015":9,
    "2016":8.8,
    "2017":8.4,
    "2018":7.9,
    "2019":7.6,
    "2020":7.2,
    "2021":7.1
    }
  },
  {
    "type": "Feature",
    "geometry": {
       "type": "Point",
       "coordinates":  [ 113.921327,-0.789275 ]
    },
    "properties": {
    "Country Name":"Indonesia",
    "Country Code":"IDN",
    "2010":20.158,
    "2011":20.345,
    "2012":20.093,
    "2013":19.417,
    "2014":18.954,
    "2015":18.448,
    "2016":18.017,
    "2017":17.519,
    "2018":17.179,
    "2019":16.91,
    "2020":16.649,
    "2021":16.425
    }
  },
  {
    "type": "Feature",
    "geometry": {
       "type": "Point",
       "coordinates":  [ -7.3055309,53.7797554 ]
    },
    "properties": {
    "Country Name":"Ireland",
    "Country Code":"IRL",
    "2010":16.5,
    "2011":16.2,
    "2012":15.6,
    "2013":14.9,
    "2014":14.4,
    "2015":13.9,
    "2016":13.4,
    "2017":12.9,
    "2018":12.5,
    "2019":12,
    "2020":11.2,
    "2021":11.6
    }
  },
  {
    "type": "Feature",
    "geometry": {
       "type": "Point",
       "coordinates":  [ 34.851612,31.046051 ]
    },
    "properties": {
    "Country Name":"Israel",
    "Country Code":"ISR",
    "2010":21.8,
    "2011":21.4,
    "2012":21.6,
    "2013":21.3,
    "2014":21.5,
    "2015":21.3,
    "2016":21.2,
    "2017":21.1,
    "2018":20.8,
    "2019":20.1,
    "2020":19.2,
    "2021":19.7
    }
  },
  {
    "type": "Feature",
    "geometry": {
       "type": "Point",
       "coordinates":  [ 127.766922,35.907757 ]
    },
    "properties": {
    "Country Name":"Korea, Rep.",
    "Country Code":"KOR",
    "2010":9.4,
    "2011":9.4,
    "2012":9.6,
    "2013":8.6,
    "2014":8.6,
    "2015":8.6,
    "2016":7.9,
    "2017":7,
    "2018":6.4,
    "2019":5.9,
    "2020":5.3,
    "2021":5.1
    }
  },
  {
    "type": "Feature",
    "geometry": {
       "type": "Point",
       "coordinates":  [ -102.552784,23.634501 ]
    },
    "properties": {
    "Country Name":"Mexico",
    "Country Code":"MEX",
    "2010":20.152,
    "2011":19.917,
    "2012":19.635,
    "2013":19.326,
    "2014":18.711,
    "2015":17.968,
    "2016":17.42,
    "2017":16.947,
    "2018":16.465,
    "2019":15.71,
    "2020":15.565,
    "2021":14.857
    }
  },
  {
    "type": "Feature",
    "geometry": {
       "type": "Point",
       "coordinates":  [ 8.675277,9.081999 ]
    },
    "properties": {
    "Country Name":"Nigeria",
    "Country Code":"NGA",
    "2010":42.094,
    "2011":41.798,
    "2012":41.241,
    "2013":40.603,
    "2014":40.069,
    "2015":39.51,
    "2016":39.128,
    "2017":38.689,
    "2018":38.248,
    "2019":37.849,
    "2020":37.467,
    "2021":37.117
    }
  },
  {
    "type": "Feature",
    "geometry": {
       "type": "Point",
       "coordinates":  [ 5.291266,52.132633 ]
    },
    "properties": {
    "Country Name":"Netherlands",
    "Country Code":"NLD",
    "2010":11.1,
    "2011":10.8,
    "2012":10.5,
    "2013":10.2,
    "2014":10.4,
    "2015":10.1,
    "2016":10.1,
    "2017":9.9,
    "2018":9.8,
    "2019":9.8,
    "2020":9.7,
    "2021":10.2
    }
  },
  {
    "type": "Feature",
    "geometry": {
       "type": "Point",
       "coordinates":  [ 8.468946,60.472024 ]
    },
    "properties": {
    "Country Name":"Norway",
    "Country Code":"NOR",
    "2010":12.6,
    "2011":12.2,
    "2012":12,
    "2013":11.6,
    "2014":11.5,
    "2015":11.3,
    "2016":11.3,
    "2017":10.7,
    "2018":10.4,
    "2019":10.2,
    "2020":9.8,
    "2021":10.4
    }
  },
  {
    "type": "Feature",
    "geometry": {
       "type": "Point",
       "coordinates":  [ 19.145136,51.919438 ]
    },
    "properties": {
    "Country Name":"Poland",
    "Country Code":"POL",
    "2010":10.9,
    "2011":10.2,
    "2012":10.1,
    "2013":9.7,
    "2014":9.9,
    "2015":9.7,
    "2016":10.1,
    "2017":10.6,
    "2018":10.2,
    "2019":9.9,
    "2020":9.4,
    "2021":8.8
    }
  },
  {
    "type": "Feature",
    "geometry": {
       "type": "Point",
       "coordinates":  [ 45.079162,23.885942 ]
    },
    "properties": {
    "Country Name":"Saudi Arabia",
    "Country Code":"SAU",
    "2010":21.894,
    "2011":21.634,
    "2012":21.245,
    "2013":20.754,
    "2014":20.161,
    "2015":19.524,
    "2016":18.972,
    "2017":18.903,
    "2018":18.703,
    "2019":18.451,
    "2020":18.238,
    "2021":17.473
    }
  },
  {
    "type": "Feature",
    "geometry": {
       "type": "Point",
       "coordinates":  [ 18.643501,60.128161 ]
    },
    "properties": {
    "Country Name":"Sweden",
    "Country Code":"SWE",
    "2010":12.3,
    "2011":11.8,
    "2012":11.9,
    "2013":11.8,
    "2014":11.9,
    "2015":11.7,
    "2016":11.8,
    "2017":11.5,
    "2018":11.4,
    "2019":11.1,
    "2020":10.9,
    "2021":11
    }
  },
  {
    "type": "Feature",
    "geometry": {
       "type": "Point",
       "coordinates":  [ 100.992541,15.870032 ]
    },
    "properties": {
    "Country Name":"Thailand",
    "Country Code":"THA",
    "2010":11.926,
    "2011":11.95,
    "2012":11.754,
    "2013":11.374,
    "2014":11.004,
    "2015":10.607,
    "2016":10.26,
    "2017":9.98,
    "2018":9.662,
    "2019":9.377,
    "2020":9.182,
    "2021":8.999
    }
  },
  {
    "type": "Feature",
    "geometry": {
       "type": "Point",
       "coordinates":  [ 35.243322,38.963745 ]
    },
    "properties": {
    "Country Name":"Turkiye",
    "Country Code":"TUR",
    "2010":17.746,
    "2011":17.638,
    "2012":17.664,
    "2013":17.737,
    "2014":17.972,
    "2015":17.939,
    "2016":17.739,
    "2017":17.368,
    "2018":16.481,
    "2019":15.594,
    "2020":15.033,
    "2021":14.678
    }
  }
]
}